City_ID,City,Lat,Lng,Max Temp,Humidity,Cloudiness,Wind Speed,Country,Date
0,kiunga,-6.1219,141.2906,306.62,47,60,1.96,PG,1706492130
1,iqaluit,63.7506,-68.5145,237.0,61,20,5.66,CA,1706492131
2,nuuk,64.1835,-51.7216,249.04,95,27,4.75,GL,1706492040
3,east ballina,-28.8667,153.5833,301.37,90,100,5.68,AU,1706492134
4,blackmans bay,-43.0167,147.3167,298.22,67,86,3.63,AU,1706492135
5,anadyr,64.75,177.4833,241.48,74,0,4.0,RU,1706492135
6,port lincoln,-34.7333,135.8667,295.57,56,0,5.61,AU,1706492137
7,mahina,-17.5065,-149.489,305.02,66,20,1.54,PF,1706492138
8,port macquarie,-31.4333,152.9167,299.2,76,100,4.5,AU,1706492138
9,san luis de la loma,17.2706,-100.8939,298.88,69,97,3.22,MX,1706492139
10,essaouira,31.5125,-9.77,288.87,31,0,2.06,MA,1706492140
11,saudarkrokur,65.7461,-19.6394,266.35,88,83,4.74,IS,1706491509
12,albany,42.6001,-73.9662,274.06,84,100,2.53,US,1706491948
13,qaqortoq,60.7167,-46.0333,246.38,67,3,2.78,GL,1706492143
14,governador valadares,-18.8511,-41.9494,295.41,96,100,0.6,BR,1706492144
15,washington,47.5001,-120.5015,277.92,87,100,0.42,US,1706492043
16,hawaiian paradise park,19.5933,-154.9731,301.98,78,20,7.2,US,1706492145
17,ancud,-41.8697,-73.8203,284.47,78,0,2.13,CL,1706492146
18,longyearbyen,78.2186,15.6401,262.06,79,0,5.14,SJ,1706492147
19,huarmey,-10.0681,-78.1522,297.47,81,100,2.9,PE,1706492148
20,thompson,55.7435,-97.8558,262.24,92,100,2.06,CA,1706492149
21,constantia,44.1833,28.65,273.54,81,98,8.76,RO,1706492005
22,lakatoro,-16.0999,167.4164,301.1,70,100,2.84,VU,1706492151
23,port-aux-francais,-49.35,70.2167,277.95,69,90,14.41,TF,1706491888
24,olonkinbyen,70.9221,-8.7187,270.01,68,100,9.52,SJ,1706492152
25,quepos,9.4236,-84.1652,299.58,82,87,1.01,CR,1706492153
26,alofi,-19.0595,-169.9187,302.09,70,55,4.12,NU,1706492154
27,ilulissat,69.2167,-51.1,251.16,49,100,4.63,GL,1706492155
28,kavaratti,10.5669,72.642,300.39,71,28,3.99,IN,1706491926
29,kotabumi,-4.8333,104.9,299.81,81,92,4.51,ID,1706492156
30,edinburgh of the seven seas,-37.0676,-12.3116,289.64,79,93,9.24,SH,1706492157
31,lionel town,17.8101,-77.2406,300.09,84,3,1.36,JM,1706492158
32,tumen,42.9661,129.8425,267.06,63,4,1.56,CN,1706492159
33,hammerfest,70.6634,23.6821,277.4,75,20,8.75,NO,1706492160
34,tobelo,1.7284,128.0095,301.27,77,23,1.19,ID,1706492128
35,puerto natales,-51.7236,-72.4875,282.95,86,100,1.86,CL,1706492162
36,klyuchi,52.2667,79.1667,252.75,99,84,2.35,RU,1706492162
37,newport,51.5877,-2.9984,284.88,94,98,2.14,GB,1706491900
38,jamestown,42.097,-79.2353,273.92,99,100,4.12,US,1706492096
39,bredasdorp,-34.5322,20.0403,292.09,81,100,1.33,ZA,1706492056
40,bairnsdale,-37.8333,147.6167,303.74,44,0,0.89,AU,1706492166
41,marcala,14.15,-88.0333,289.89,91,3,3.25,HN,1706492167
42,sabang,5.8933,95.3214,300.51,79,26,9.05,ID,1706492169
43,stanley,54.868,-1.6985,281.88,86,75,4.63,GB,1706491892
44,ksar el boukhari,35.8889,2.7491,284.12,59,71,2.15,DZ,1706492170
45,south hedland,-20.4089,118.5983,303.11,66,40,7.2,AU,1706492171
46,margaret river,-33.95,115.0667,293.1,48,0,3.03,AU,1706492172
47,broken hill,-31.95,141.4333,305.8,17,0,2.97,AU,1706492173
48,afaahiti,-17.75,-149.2833,304.08,78,87,2.13,PF,1706492174
49,aasiaat,68.7098,-52.8699,242.0,99,100,3.39,GL,1706492175
50,bethel,41.3712,-73.414,275.89,86,100,3.6,US,1706492176
51,bonthe,7.5264,-12.505,298.8,87,13,2.28,SL,1706492176
52,mangrol,21.1167,70.1167,291.74,69,74,4.4,IN,1706492177
53,heroica guaymas,27.9333,-110.9,294.75,64,40,4.63,MX,1706492178
54,le port,-20.9373,55.2919,298.15,86,8,2.27,RE,1706492179
55,invercargill,-46.4,168.35,292.05,75,7,3.13,NZ,1706492180
56,vila franca do campo,37.7167,-25.4333,285.38,72,100,2.24,PT,1706492181
57,ponta delgada,37.7333,-25.6667,285.55,71,40,1.54,PT,1706492182
58,diyarbakir,37.9158,40.2189,276.14,93,75,1.54,TR,1706492131
59,awash,8.9833,40.1667,295.79,70,97,1.43,ET,1706492184
60,velikiy novgorod,58.5167,31.2833,272.66,96,100,4.89,RU,1706492185
61,adamstown,-25.066,-130.1015,297.66,77,62,4.5,PN,1706492186
62,waitangi,-43.9535,-176.5597,290.83,98,100,6.78,NZ,1706492187
63,utrik,11.2278,169.8474,298.89,69,100,6.11,MH,1706492188
64,kill devil hills,36.0307,-75.676,284.81,86,100,6.17,US,1706492030
65,dudinka,69.4058,86.1778,260.72,92,100,8.8,RU,1706492084
66,idri,27.5,13.2667,284.11,66,2,4.0,LY,1706492190
67,punta arenas,-53.15,-70.9167,287.21,58,0,5.66,CL,1706491978
68,hithadhoo,-0.6,73.0833,300.7,72,42,4.96,MV,1706491893
69,plettenberg bay,-34.0527,23.3716,292.18,80,88,1.07,ZA,1706492193
70,bilibino,68.0546,166.4372,243.51,97,99,1.77,RU,1706492194
71,ushuaia,-54.8,-68.3,287.96,51,20,5.66,AR,1706491926
72,college,64.8569,-147.8028,246.93,65,100,0.0,US,1706491919
73,whitehorse,60.7161,-135.0538,275.58,87,100,7.2,CA,1706492178
74,pajok,3.8651,32.4821,294.99,58,34,0.75,SS,1706492199
75,ribeira grande,38.5167,-28.7,288.58,72,100,7.6,PT,1706492199
76,vilyuchinsk,52.9306,158.4028,266.3,79,99,1.42,RU,1706492200
77,avarua,-21.2078,-159.775,302.18,79,97,5.14,CK,1706492201
78,hita,33.3167,130.9333,282.08,50,2,1.65,JP,1706492202
79,kokopo,-4.352,152.2633,300.32,83,100,3.3,PG,1706492203
80,luanda,-8.8368,13.2343,299.45,85,100,2.17,AO,1706492204
81,atar,20.5169,-13.0499,289.89,16,0,3.21,MR,1706492205
82,lebu,-37.6167,-73.65,286.99,79,0,7.7,CL,1706492206
83,portland,45.5234,-122.6762,289.98,89,100,3.58,US,1706491877
84,al wakrah,24.85,51.3333,288.2,61,100,3.82,QA,1706492207
85,puerto ayora,-0.7393,-90.3518,298.85,86,82,3.4,EC,1706492208
86,kindia,10.0569,-12.8658,292.64,62,16,1.41,GN,1706492210
87,tazovsky,67.4667,78.7,254.69,97,100,4.48,RU,1706492211
88,recreo,-29.2818,-65.061,301.15,28,61,6.83,AR,1706492212
89,saldanha,-33.0117,17.9442,291.18,90,100,3.4,ZA,1706492213
90,hamilton,39.1834,-84.5333,277.65,92,100,5.66,US,1706491996
91,santo antonio,-6.3106,-35.4789,298.5,83,73,2.39,BR,1706492214
92,christchurch,-43.5333,172.6333,296.78,60,13,7.72,NZ,1706492120
93,ouddorp,51.8117,3.9347,280.14,83,79,6.56,NL,1706492216
94,sao martinho,39.5144,-9.1311,288.64,83,100,2.68,PT,1706492217
95,bacacay,13.2934,123.7919,298.12,78,96,7.65,PH,1706492218
96,nikolayevsk-on-amure,53.1406,140.73,259.97,81,91,0.85,RU,1706492219
97,port alfred,-33.5906,26.891,293.25,91,36,3.1,ZA,1706492220
98,la passe,45.5549,-0.8967,283.28,90,100,6.32,FR,1706492221
99,benguela,-12.5763,13.4055,299.19,82,46,1.52,AO,1706492222
100,atafu village,-8.5421,-172.5159,302.66,71,57,2.96,TK,1706492223
101,ciudad insurgentes,25.2625,-111.7753,291.98,49,99,3.89,MX,1706492224
102,luderitz,-26.6481,15.1594,289.89,89,86,0.96,NA,1706492225
103,fada,9.5667,8.3,291.57,27,2,2.96,NG,1706492328
104,el charco,2.4769,-78.1105,298.4,94,99,0.7,CO,1706492329
105,kanina khas,28.3333,76.3167,283.12,67,0,2.02,IN,1706492330
106,as sulayyil,20.4607,45.5779,289.29,55,35,4.18,SA,1706492331
107,an nuhud,12.7,28.4333,288.18,27,49,6.49,SD,1706492332
108,az zubayr,30.3945,47.7011,282.07,71,0,2.06,IQ,1706492333
109,touros,-5.1989,-35.4608,300.42,76,55,5.04,BR,1706492145
110,wakkanai,45.4094,141.6739,273.2,90,75,2.06,JP,1706492335
111,talnakh,69.4865,88.3972,260.49,93,100,5.52,RU,1706492336
112,pangody,65.85,74.4859,254.68,98,100,3.98,RU,1706492293
113,tiksi,71.6872,128.8694,249.39,96,100,4.49,RU,1706492337
114,las heras,-46.5419,-68.9359,293.42,20,4,6.53,AR,1706492338
115,nova sintra,14.8667,-24.7167,294.88,65,3,4.48,CV,1706492339
116,grytviken,-54.2811,-36.5092,278.01,87,22,5.42,GS,1706492015
117,uacu cungo,-11.3634,15.1208,290.25,99,82,0.51,AO,1706492341
118,myskhako,44.6714,37.7433,276.81,86,96,4.71,RU,1706492342
119,georgetown,5.4112,100.3354,301.11,70,20,3.6,MY,1706491916
120,philadelphia,39.9523,-75.1638,277.62,92,100,6.69,US,1706492047
121,sawakin,19.1059,37.3321,294.56,65,100,4.15,SD,1706492345
122,kodiak,57.79,-152.4072,264.88,62,20,7.2,US,1706492322
123,kingston,17.997,-76.7936,299.68,81,75,2.57,JM,1706492346
124,boende,-0.2167,20.8667,298.16,67,100,1.02,CD,1706492347
125,harrisonville,38.6533,-94.3488,279.4,81,0,0.0,US,1706492348
126,west island,-12.1568,96.8225,301.14,65,10,4.12,CC,1706492349
127,papatowai,-46.5619,169.4708,291.5,65,25,2.73,NZ,1706492040
128,prado,-17.3411,-39.2208,297.03,91,99,3.61,BR,1706492351
129,shitanjing,39.2342,106.3439,267.72,24,0,2.2,CN,1706492352
130,weno,7.4515,151.8468,303.12,66,40,4.12,FM,1706492353
131,nagqu,31.5,92.0,260.0,45,100,0.69,CN,1706492354
132,nadym,65.5333,72.5167,256.26,97,99,4.43,RU,1706492354
133,arraial do cabo,-22.9661,-42.0278,296.85,91,98,2.83,BR,1706492355
134,thinadhoo,0.5333,72.9333,300.62,71,94,5.72,MV,1706492356
135,new norfolk,-42.7826,147.0587,292.57,67,98,3.5,AU,1706492357
136,chengdu,30.6667,104.0667,278.09,87,75,1.0,CN,1706492194
137,vasyurinskaya,45.1181,39.424,274.18,89,99,4.48,RU,1706492359
138,atoka,34.4001,-96.0169,282.98,67,0,0.72,US,1706492360
139,cabo san lucas,22.8909,-109.9124,299.32,67,0,2.06,MX,1706492284
140,katsuren-haebaru,26.3369,127.8719,292.58,49,0,4.63,JP,1706492361
141,remire-montjoly,4.9167,-52.2667,298.17,94,75,1.54,GF,1706492362
142,chibougamau,49.9168,-74.3659,263.94,79,100,3.09,CA,1706492364
143,zavetnoye,47.1194,43.8903,268.97,92,100,4.58,RU,1706492365
144,iskateley,67.6803,53.1512,265.35,94,93,5.74,RU,1706492365
145,karratha,-20.7377,116.8463,303.38,53,6,6.0,AU,1706492366
146,badger,64.8,-147.5333,246.88,67,100,0.0,US,1706492367
147,ust-nera,64.5667,143.2,235.03,100,84,2.84,RU,1706492365
148,abasolo,20.45,-101.5167,289.58,32,100,2.32,MX,1706492369
149,coahuayana de hidalgo,18.7,-103.6583,296.52,85,100,1.03,MX,1706492370
150,bay roberts,47.5999,-53.2648,272.62,80,79,2.24,CA,1706492371
151,kenai,60.5544,-151.2583,257.67,70,100,3.09,US,1706492135
152,mahibadhoo,3.7833,72.9667,300.93,71,43,6.49,MV,1706492373
153,cockburn town,21.4612,-71.1419,300.13,61,40,4.63,TC,1706492374
154,akjoujt,19.6969,-14.4164,291.52,13,1,4.38,MR,1706492375
155,port elizabeth,-33.918,25.5701,293.32,79,0,2.57,ZA,1706492376
156,udachny,66.4167,112.4,244.92,77,97,1.92,RU,1706492377
157,nema,57.5067,50.5011,261.47,98,99,1.89,RU,1706492378
158,alpatovo,43.7028,45.2415,274.9,93,100,2.16,RU,1706492378
159,colonia,50.9333,6.95,282.27,58,0,4.63,DE,1706492263
160,sinabang,2.4803,96.3801,300.41,80,55,0.64,ID,1706492380
161,hermanus,-34.4187,19.2345,292.48,79,98,2.1,ZA,1706492381
162,sam roi yot,12.2708,99.872,298.14,64,31,1.04,TH,1706492382
163,anar darah,32.7587,61.654,283.33,47,0,2.63,AF,1706492383
164,newman,37.3138,-121.0208,291.14,72,56,0.61,US,1706492384
165,jertih,5.7336,102.4897,297.5,90,95,3.02,MY,1706492385
166,zhangjiajie,29.1294,110.4783,281.2,73,97,1.26,CN,1706492385
167,gizo,-8.103,156.8419,299.07,88,100,5.16,SB,1706492386
168,waddan,29.1614,16.139,283.1,83,0,3.38,LY,1706492387
169,buxton,53.2574,-1.9098,282.83,97,100,3.11,GB,1706492388
170,bam,29.106,58.357,284.29,49,70,0.19,IR,1706492390
171,ga-kgapane,-23.6333,30.2167,293.04,69,77,1.17,ZA,1706492391
172,nouadhibou,20.931,-17.0347,294.14,37,0,5.14,MR,1706492391
173,saint-francois,46.4154,3.9054,277.95,87,0,1.54,FR,1706492392
174,haiku-pauwela,20.9219,-156.3051,299.28,70,40,12.35,US,1706492393
175,victoria point,-27.5833,153.3,303.12,81,100,1.79,AU,1706492394
176,port blair,11.6667,92.75,299.17,94,75,1.03,IN,1706492395
177,coquimbo,-29.9533,-71.3436,291.0,88,40,4.12,CL,1706492396
178,gangtok,27.3333,88.6167,279.94,51,84,0.7,IN,1706491812
179,kayangel,8.0823,134.7173,300.56,82,97,11.39,PW,1706492397
180,tual,-5.6667,132.75,301.86,75,69,7.16,ID,1706492398
181,lu-uk,5.9684,121.3122,301.21,70,61,2.87,PH,1706492399
182,puerto maldonado,-12.6,-69.1833,296.62,97,57,0.77,PE,1706492400
183,san elizario,31.5851,-106.2728,288.75,34,75,2.06,US,1706492403
184,ulanhot,46.0833,122.0833,254.82,60,0,2.1,CN,1706492404
185,n'dalatando,-9.2978,14.9116,293.62,99,99,0.99,AO,1706492405
186,pudasjarvi,65.3833,26.9167,273.89,92,100,5.79,FI,1706492406
187,tura,25.5198,90.2201,288.41,55,1,0.81,IN,1706492407
188,kafir qala,34.6667,61.0667,278.02,86,0,3.82,AF,1706492409
189,san vicente,-26.6167,-54.1333,290.76,77,46,1.27,AR,1706492409
190,monjaras,13.2006,-87.3742,302.31,50,69,0.81,HN,1706492410
191,preobrazheniye,42.9019,133.9064,270.65,48,0,1.34,RU,1706492411
192,fort irwin,35.2627,-116.6848,291.89,37,0,2.06,US,1706492412
193,seaford,50.7714,0.1027,282.98,79,100,0.45,GB,1706492413
194,mount gambier,-37.8333,140.7667,297.66,47,0,4.31,AU,1706492414
195,mumbwa,-14.9783,27.0619,289.89,84,23,1.14,ZM,1706492415
196,saipan,15.1355,145.701,301.54,57,40,9.26,MP,1706492403
197,carnarvon,-24.8667,113.6333,299.32,60,0,7.84,AU,1706492417
198,alaghsas,17.0187,8.0168,290.26,22,0,4.99,NE,1706492418
199,st. john's,47.5649,-52.7093,272.41,82,100,6.69,CA,1706492344
200,axams,47.2081,11.2869,273.18,93,2,1.54,AT,1706492419
201,jayapura,-2.5333,140.7,301.81,65,93,1.58,ID,1706492420
202,oranjemund,-28.55,16.4333,290.82,88,11,2.28,NA,1706492422
203,najran,17.4924,44.1277,289.51,61,73,1.05,SA,1706492423
204,rikaze,29.25,88.8833,268.2,51,0,1.34,CN,1706492423
205,rongelap,11.1635,166.8941,299.01,74,100,6.42,MH,1706492371
206,tindouf,27.6711,-8.1474,284.4,25,0,3.09,DZ,1706492426
207,zhezqazghan,47.7833,67.7667,257.47,85,20,9.0,KZ,1706492427
208,anlu,31.1661,112.5831,280.65,57,99,2.73,CN,1706492428
209,enriquillo,17.9,-71.2333,296.89,85,15,2.8,DO,1706492429
210,labrador city,52.9463,-66.9114,247.1,76,0,0.0,CA,1706492410
211,nemuro,43.3236,145.575,273.15,79,73,5.18,JP,1706492431
212,shenkursk,62.1091,42.896,266.95,96,100,3.32,RU,1706492432
213,keflavik,64.0049,-22.5624,274.1,64,20,14.92,IS,1706492432
214,margate,51.3813,1.3862,281.31,90,99,2.24,GB,1706492433
215,tolanaro,-25.0319,46.9987,296.19,88,75,3.6,MG,1706492434
216,pelotas,-31.7719,-52.3425,292.88,93,2,1.77,BR,1706492205
217,puerto lempira,15.2667,-83.7667,297.92,88,2,3.78,HN,1706492436
218,gargalianoi,37.0667,21.6333,279.49,60,14,4.93,GR,1706492437
219,san patricio,28.017,-97.5169,289.07,52,0,2.64,US,1706492439
220,mary,37.0,62.5,278.48,80,100,1.74,TM,1706492352
221,susuman,62.7833,148.1667,233.14,99,84,0.45,RU,1706491920
222,tazacorte,28.629,-17.9293,291.57,26,0,3.13,ES,1706492441
223,nepanagar,21.4667,76.4,292.02,44,77,0.45,IN,1706492442
224,jingdezhen,29.2947,117.2079,281.8,60,100,0.61,CN,1706492443
225,homer,59.6425,-151.5483,262.08,66,100,2.24,US,1706492445
226,westport,41.1415,-73.3579,276.66,86,100,5.66,US,1706492180
227,coronel oviedo,-25.4167,-56.45,295.18,58,0,1.79,PY,1706492447
228,tshabong,-26.05,22.45,300.17,47,18,4.58,BW,1706492448
229,opuwo,-18.0607,13.84,294.42,59,9,1.51,NA,1706492449
230,sao vicente,-23.9631,-46.3919,297.74,26,20,1.76,BR,1706492450
231,chulym,55.0997,80.9572,252.44,99,89,2.77,RU,1706492451
232,malvan,16.0667,73.4667,295.77,60,81,2.57,IN,1706492452
233,laojunmiao,39.8333,97.7333,266.81,25,41,0.76,CN,1706492453
234,leava,-14.3,-178.1667,301.34,82,100,9.6,WF,1706492454
235,kapuskasing,49.4169,-82.4331,270.15,93,100,1.54,CA,1706492454
236,barra dos coqueiros,-10.9089,-37.0386,300.16,83,0,3.6,BR,1706492455
237,tromso,69.6496,18.957,279.16,70,100,10.8,NO,1706492456
238,shchigry,51.8755,36.9043,270.05,97,100,2.23,RU,1706492457
239,wailua homesteads,22.0669,-159.378,300.79,71,20,9.77,US,1706492458
240,takaungu,-3.6837,39.8566,298.82,87,31,2.4,KE,1706492459
241,bouillon,49.7932,5.067,277.07,88,100,2.13,BE,1706492460
242,taoudenni,22.6783,-3.9836,291.92,17,0,4.54,ML,1706492461
243,happy valley-goose bay,53.3168,-60.3315,251.32,54,0,3.09,CA,1706492461
244,salinopolis,-0.6136,-47.3561,300.13,85,94,4.39,BR,1706492183
245,gole,52.1665,20.4937,276.51,82,9,2.93,PL,1706492463
246,baglung,28.2719,83.5898,281.23,51,1,2.22,NP,1706492464
247,san nicolas de los arroyos,-33.3358,-60.2252,294.78,46,28,2.72,AR,1706492465
248,jiwani,25.05,61.7417,296.28,77,100,3.87,PK,1706492466
249,chipata,-13.6333,32.65,289.98,86,2,2.05,ZM,1706492467
250,lihue,21.9789,-159.3672,301.13,71,20,9.77,US,1706492380
251,narasapur,16.45,81.6667,292.35,82,50,1.95,IN,1706492469
252,takoradi,4.8845,-1.7554,298.92,84,6,1.81,GH,1706492470
253,wau,7.7029,27.9953,295.46,22,100,2.29,SS,1706492352
254,laguna,38.421,-121.4238,292.31,73,0,3.6,US,1706492472
255,ust'-kulom,61.6864,53.6902,263.05,96,100,2.26,RU,1706492473
256,kataba,13.9833,44.3833,287.32,90,100,0.66,YE,1706492474
257,guerrero,17.6667,-100.0,293.47,50,78,1.37,MX,1706492475
258,sitka,57.0531,-135.33,285.09,58,100,11.83,US,1706492476
259,kanniyakumari,8.0833,77.5667,297.73,77,10,9.13,IN,1706492477
260,greymouth,-42.4667,171.2,294.02,58,0,5.08,NZ,1706492478
261,nabire,-3.3667,135.4833,304.6,59,97,1.71,ID,1706491904
262,holmsund,63.706,20.3641,275.12,86,0,5.81,SE,1706492480
263,kayyerkan,69.3786,87.7439,260.54,84,100,5.24,RU,1706492481
264,san antonio,29.4241,-98.4936,289.21,46,0,2.57,US,1706492458
265,geidam,12.897,11.9304,289.24,27,1,4.22,NG,1706492483
266,riyadh,24.6877,46.7219,286.23,50,100,4.03,SA,1706492280
267,la ronge,55.1001,-105.2842,275.29,75,20,3.09,CA,1706492485
268,aginskoye,51.1,114.53,248.29,95,99,1.8,RU,1706492486
269,bubaque,11.2833,-15.8333,299.14,66,70,3.93,GW,1706492487
270,abqaiq,25.9371,49.6776,288.07,70,97,2.6,SA,1706492487
271,queenstown,-31.8976,26.8753,292.38,69,54,1.34,ZA,1706492488
272,glace bay,46.1969,-59.957,271.51,85,100,1.03,CA,1706492489
273,srikakulam,18.3,83.9,292.4,78,41,1.43,IN,1706492490
274,grootfontein,-19.5667,18.1167,291.91,82,95,1.03,NA,1706492491
275,beloozerskiy,55.4598,38.4436,269.44,100,96,1.84,RU,1706492492
276,damavand,35.7178,52.065,266.82,54,0,2.51,IR,1706492493
277,san pedro,14.35,121.0167,300.01,72,75,5.66,PH,1706492494
278,taro,-8.3862,115.28,296.15,73,100,0.64,ID,1706492495
279,burang,30.25,81.1667,264.41,81,26,0.61,CN,1706492496
280,minas de marcona,-15.2119,-75.1103,292.78,75,7,3.7,PE,1706492421
281,lac-brome,45.2168,-72.5158,273.66,94,100,1.86,CA,1706492497
282,pyapon,16.2833,95.6833,297.39,71,2,2.15,MM,1706492498
283,yinchuan,38.4681,106.2731,268.31,27,2,2.26,CN,1706492499
284,barra de santo antonio,-9.4047,-35.5072,299.75,85,100,3.95,BR,1706492500
285,colipapa,9.4726,122.5616,301.49,63,100,7.44,PH,1706492501
286,qarauyl,48.9451,79.255,259.14,98,100,1.91,KZ,1706492502
287,independence,39.0911,-94.4155,280.05,76,0,0.0,US,1706492503
288,mandera,3.9366,41.867,299.92,68,100,5.74,KE,1706492503
289,mount isa,-20.7333,139.5,302.02,51,100,2.57,AU,1706492505
290,al hazm,16.1641,44.7769,293.15,46,62,0.6,YE,1706492506
291,genhe,50.7833,121.5167,245.89,87,39,1.25,CN,1706492507
292,malango,-2.9627,119.9001,300.8,62,99,0.81,ID,1706492508
293,gadzhiyevo,69.2551,33.3362,273.7,90,100,11.45,RU,1706492509
294,port moresby,-9.4431,147.1797,304.31,54,65,3.04,PG,1706492510
295,manado,1.487,124.8455,302.58,74,20,1.03,ID,1706492511
296,el porvenir,13.7617,-87.3458,300.78,61,22,3.2,HN,1706492511
297,nzerekore,7.7562,-8.8179,291.61,30,10,0.37,GN,1706492512
298,gorgan,36.8387,54.4348,279.13,100,100,0.0,IR,1706492513
299,northam,51.0333,-4.2167,286.29,93,100,4.83,GB,1706492392
300,kargasok,59.0556,80.8572,255.91,96,100,3.58,RU,1706492515
301,kalmunai,7.4167,81.8167,299.1,84,91,6.2,LK,1706492516
302,miramichi,47.0043,-65.4654,272.18,96,100,0.31,CA,1706492517
303,kone,-21.0595,164.8658,304.17,51,90,4.75,NC,1706492518
304,gazojak,41.1875,61.4036,274.29,82,99,5.42,TM,1706492519
305,tornio,65.8481,24.1466,274.16,92,100,8.25,FI,1706492520
306,victoria falls,-17.9235,25.843,292.81,73,83,0.93,ZW,1706492521
307,road town,18.4167,-64.6167,298.17,78,20,2.57,VG,1706492522
308,pithoragarh,29.5833,80.2167,274.13,53,0,1.33,IN,1706492523
309,fisterra,42.9049,-9.2629,290.23,74,100,10.38,ES,1706492524
310,morogoro,-6.8167,37.6667,295.13,99,100,1.08,TZ,1706492525
311,kalabo,-14.97,22.6814,291.55,72,5,2.45,ZM,1706492361
312,netrakona,24.8833,90.7167,288.1,57,1,2.15,BD,1706492527
313,altai,46.3722,96.2583,256.82,51,100,0.82,MN,1706492528
314,laghouat,33.8,2.8651,282.4,51,20,1.97,DZ,1706492529
315,crane,31.3974,-102.3501,286.27,36,15,4.73,US,1706492530
316,richards bay,-28.783,32.0377,296.03,77,17,5.05,ZA,1706492531
317,fort bragg,35.139,-79.006,286.9,50,75,5.66,US,1706492532
318,dhidhdhoo,6.8833,73.1,300.1,66,30,3.36,MV,1706492533
319,porto novo,6.4965,2.6036,300.05,61,16,1.58,BJ,1706492452
320,leh,34.1667,77.5833,265.43,88,98,1.67,IN,1706492535
321,ola,59.5833,151.2833,256.99,74,6,2.12,RU,1706492536
322,sisimiut,66.9395,-53.6735,251.49,98,100,4.01,GL,1706492537
323,kruisfontein,-34.0033,24.7314,290.31,71,30,0.32,ZA,1706492539
324,vadso,70.0744,29.7487,274.24,86,100,5.66,NO,1706492540
325,ketchikan,55.3422,-131.6461,284.41,76,100,4.63,US,1706492541
326,summerside,46.3959,-63.7876,272.22,93,100,1.54,CA,1706492542
327,kachia,9.8667,7.95,292.54,24,0,4.11,NG,1706492543
328,praia da vitoria,38.7333,-27.0667,287.46,76,40,5.11,PT,1706492406
329,abong mbang,3.9833,13.1833,292.45,42,15,1.84,CM,1706492544
330,palikir - national government center,6.9248,158.1611,303.62,70,75,5.66,FM,1706492545
331,ulenje,-8.9333,33.6833,288.38,97,100,0.58,TZ,1706492546
332,novo aripuana,-5.1206,-60.3797,296.42,99,100,1.66,BR,1706492547
333,aljezur,37.3191,-8.8033,287.23,69,100,3.14,PT,1706492548
334,tsiombe,-25.3,45.4833,295.76,83,14,5.55,MG,1706492398
335,turtas,58.9417,69.1325,251.88,100,91,1.37,RU,1706492550
336,puerto gaitan,4.3133,-72.0816,303.14,39,34,3.23,CO,1706492283
337,sorong,-0.8833,131.25,301.25,78,52,2.19,ID,1706492552
338,arkhangel'sk,64.5401,40.5433,271.21,92,100,4.0,RU,1706492553
339,long beach,33.767,-118.1892,296.47,44,0,0.45,US,1706492296
340,jiexiu,37.0244,111.9125,273.75,27,0,1.02,CN,1706492555
341,khandyga,62.6667,135.6,233.44,98,98,0.22,RU,1706492557
342,manay,7.215,126.5397,299.58,86,99,4.35,PH,1706492558
343,villa la angostura,-40.7617,-71.6463,283.04,57,0,2.5,AR,1706492559
344,zaozersk,69.4005,32.4476,274.19,90,100,12.06,RU,1706492560
345,maloh,9.056,122.9851,300.21,67,100,6.27,PH,1706492561
346,menaka,15.9182,2.4022,291.4,17,0,4.72,ML,1706492561
347,morondava,-20.2833,44.2833,297.9,78,8,0.66,MG,1706492562
348,brookings,44.3114,-96.7984,274.47,93,0,3.09,US,1706492563
349,vorgashor,67.5833,63.95,260.16,95,100,5.04,RU,1706492564
350,galle,6.0367,80.217,298.25,88,62,2.48,LK,1706492565
351,puerto princesa,9.7392,118.7353,301.14,69,20,5.14,PH,1706492566
352,jupiter,26.9342,-80.0942,293.18,74,100,6.69,US,1706492567
353,sandnessjoen,66.0217,12.6316,280.44,93,100,20.3,NO,1706492568
354,yuzhno-kurilsk,44.0306,145.8556,273.36,93,89,5.98,RU,1706492363
355,lautoka,-17.6167,177.4667,303.07,62,40,5.14,FJ,1706492570
356,fort st. john,56.2499,-120.8529,278.09,70,40,3.6,CA,1706492432
357,cole harbour,44.6724,-63.4751,273.25,92,100,1.06,CA,1706492449
358,hasaki,35.7333,140.8333,283.31,45,2,6.63,JP,1706492572
359,kerikeri,-35.2268,173.9474,294.77,81,63,5.25,NZ,1706492573
360,puerto ayacucho,5.6639,-67.6236,300.61,64,25,0.89,VE,1706492574
361,saint-georges,12.0564,-61.7485,297.97,88,20,7.2,GD,1706492575
362,san pedro pochutla,15.7333,-96.4667,299.99,72,54,0.94,MX,1706492576
363,mejit,10.2753,170.8646,298.71,76,100,6.87,MH,1706492577
364,konstantinovka,49.6167,127.9833,252.52,89,39,3.39,RU,1706492577
365,qamdo,31.1667,97.2333,262.61,36,5,2.62,CN,1706492578
366,korsakov,46.6328,142.7813,268.06,84,100,2.4,RU,1706492579
367,huangmei,30.1924,116.025,280.97,50,100,1.68,CN,1706492580
368,tevriz,57.509,72.4042,258.81,97,100,1.51,RU,1706492581
369,kristiansund,63.1115,7.732,282.51,76,75,12.86,NO,1706492581
370,isafjordur,66.0755,-23.124,266.81,87,98,1.75,IS,1706492582
371,lodja,-3.4833,23.4333,295.48,84,100,0.84,CD,1706492584
372,clearwater,27.9659,-82.8001,288.12,78,0,10.28,US,1706492577
373,yilan,24.757,121.753,292.07,88,99,0.69,TW,1706492586
374,rurrenabaque,-14.4413,-67.5278,298.15,91,74,0.7,BO,1706492587
375,assomada,15.1,-23.6833,292.9,68,3,4.09,CV,1706492588
376,beloretsk,53.9631,58.3981,254.0,100,60,0.89,RU,1706492588
377,qa'en,33.7265,59.1844,276.6,52,0,0.53,IR,1706492589
378,seven pagodas,12.6264,80.1722,296.18,74,79,4.73,IN,1706492591
379,vanimo,-2.6741,141.3028,302.6,70,99,1.55,PG,1706492592
380,wynyard,-41.0,145.7167,293.9,63,100,5.1,AU,1706492593
381,kuanda,56.3161,116.0806,239.92,95,45,0.38,RU,1706492594
382,tralee,52.2704,-9.7026,278.41,90,100,1.15,IE,1706492398
383,ulety,51.3572,112.4849,249.6,89,100,0.43,RU,1706492595
384,narvik,68.4384,17.4272,279.82,86,100,5.0,NO,1706492596
385,rio grande,-32.035,-52.0986,294.51,85,7,4.05,BR,1706492597
386,santa cruz,-17.8,-63.1667,300.85,74,75,4.12,BO,1706492342
387,san jose del guaviare,2.5729,-72.6459,300.13,48,23,1.5,CO,1706492599
388,almyros,39.1822,22.7594,275.85,65,40,2.57,GR,1706492600
389,katsuura,35.1333,140.3,282.79,49,1,5.55,JP,1706492601
390,gamba,-2.65,10.0,299.58,89,100,1.68,GA,1706492602
391,ta`u,-14.2336,-169.5144,302.33,75,62,5.45,AS,1706492603
392,sola,-13.8833,167.55,301.12,74,100,4.57,VU,1706492604
393,shakawe,-18.3667,21.85,294.21,61,1,2.44,BW,1706492604
394,inhambane,-23.865,35.3833,296.98,83,5,2.7,MZ,1706492605
395,mezhdurechensk,53.6942,88.0603,260.57,97,100,0.27,RU,1706492607
396,poggio rusco,44.9749,11.1187,278.21,61,0,0.35,IT,1706492608
397,ghanzi,-21.5667,21.7833,295.26,65,34,3.73,BW,1706492609
398,enewetak,11.3474,162.3373,299.32,70,97,6.99,MH,1706492610
399,muroto-misakicho,33.2833,134.15,282.45,59,7,0.62,JP,1706492611
400,galveston,29.3669,-94.9669,286.51,65,0,3.6,US,1706492611
401,prabumulih,-3.45,104.25,300.68,76,32,2.38,ID,1706492612
402,tomball,30.0972,-95.6161,286.52,73,0,0.0,US,1706492347
403,naze,28.3667,129.4833,287.66,56,76,4.43,JP,1706492605
404,dabou,5.3256,-4.3769,298.74,88,1,1.97,CI,1706492615
405,cabedelo,-6.9811,-34.8339,300.52,80,85,4.1,BR,1706492616
406,thunder bay,48.4001,-89.3168,269.1,93,0,1.03,CA,1706492552
407,chonchi,-42.6128,-73.8092,286.71,89,0,1.32,CL,1706492367
408,swift current,50.2834,-107.8014,278.6,81,0,6.17,CA,1706492618
409,daru,-9.0763,143.2092,305.43,56,53,2.99,PG,1706492619
410,ocean shores,46.9737,-124.1563,288.16,98,100,4.12,US,1706492620
411,ivdel',60.6911,60.4206,258.25,96,100,0.89,RU,1706492621
412,nurota,40.5614,65.6886,277.09,96,100,3.92,UZ,1706492622
413,guerrero negro,27.9769,-114.0611,292.97,42,96,3.82,MX,1706492373
414,mount pearl,47.5166,-52.7813,271.95,82,100,6.69,CA,1706492624
415,ujae,8.9322,165.7642,299.47,70,89,6.64,MH,1706492625
416,eiguliai,54.9282,23.9329,275.18,88,100,1.54,LT,1706492625
417,puerto san jose,13.9256,-90.8244,299.86,76,4,2.35,GT,1706492626
418,mossel bay,-34.1831,22.146,292.46,82,36,1.31,ZA,1706492627
419,kununurra,-15.7667,128.7333,304.14,70,100,3.09,AU,1706492628
420,belmonte,-15.8631,-38.8828,298.48,88,100,3.98,BR,1706492629
421,elverum,60.8819,11.5623,274.64,92,100,4.93,NO,1706492630
422,tonekabon,36.8163,50.8738,280.12,75,64,1.38,IR,1706492631
423,goyerkata,26.6998,89.0257,288.66,49,1,0.76,IN,1706492631
424,humberto de campos,-2.5983,-43.4611,297.79,94,99,1.98,BR,1706492632
425,bojia,26.4672,111.9681,280.15,87,100,0.9,CN,1706492633
426,rakops,-21.0167,24.3333,299.4,48,68,2.85,BW,1706492634
427,alice springs,-23.7,133.8833,312.16,11,43,2.57,AU,1706492635
428,lompoc,34.6391,-120.4579,293.58,59,0,4.63,US,1706492439
429,lauro de freitas,-12.8944,-38.3272,300.16,89,75,4.12,BR,1706492636
430,sao joao da barra,-21.6403,-41.0511,297.03,94,100,0.39,BR,1706492637
431,camacupa,-12.0167,17.4833,290.01,96,100,2.0,AO,1706492638
432,conduaga,8.862,117.4893,301.47,62,85,2.6,PH,1706492639
433,saki,8.6667,3.3833,297.03,20,0,2.02,NG,1706492640
434,"laikit, laikit ii (dimembe)",1.4792,124.9735,300.62,74,20,1.03,ID,1706492641
435,steinbach,50.1667,8.5667,276.84,82,0,0.51,DE,1706492642
436,beipiao,41.7919,120.7792,263.64,36,5,4.21,CN,1706492643
437,port pirie,-33.1833,138.0167,302.72,37,0,5.58,AU,1706492370
438,kananga,-5.8958,22.4178,294.39,95,100,0.49,CD,1706492645
439,la libertad,-2.2333,-80.9,298.76,83,95,3.25,EC,1706492646
440,coaticook,45.1334,-71.7991,273.05,97,100,2.24,CA,1706492422
441,muisne,0.6,-80.0333,299.21,89,100,0.31,EC,1706492648
442,yueyang,29.3333,113.0919,280.63,77,100,2.27,CN,1706492583
443,east london,-33.0153,27.9116,295.6,89,95,3.58,ZA,1706492650
444,rolla,37.9514,-91.7713,274.19,87,40,1.54,US,1706492650
445,carutapera,-1.195,-46.02,299.15,88,99,2.54,BR,1706492651
446,ebeltoft,56.1944,10.6821,278.16,70,100,4.12,DK,1706492652
447,boda,4.3189,17.4695,294.91,29,20,1.78,CF,1706492653
448,ixtapa,20.7,-105.2,297.72,83,75,2.06,MX,1706492654
449,uturoa,-16.7333,-151.4333,301.36,79,74,3.76,PF,1706492655
450,bukittinggi,-0.3091,100.3706,295.58,77,67,1.82,ID,1706492656
451,okhotsk,59.3833,143.3,251.66,74,63,5.18,RU,1706492657
452,santiago,-33.4569,-70.6483,300.01,49,0,5.66,CL,1706492561
453,itamaraca,-7.7478,-34.8256,301.18,82,94,3.05,BR,1706492658
454,punta del este,-34.9667,-54.95,295.21,78,0,4.12,UY,1706492505
455,twin falls,42.3505,-114.6445,277.56,87,0,2.06,US,1706492660
456,bhimunipatnam,17.8833,83.4333,290.88,76,50,1.92,IN,1706492661
457,puerto santa,-8.9906,-78.6456,297.34,81,100,3.76,PE,1706492429
458,anchorage,61.2181,-149.9003,257.41,81,100,2.57,US,1706492625
459,port hedland,-20.3167,118.5667,303.18,66,40,7.2,AU,1706492655
460,rosario del tala,-32.3029,-59.1455,296.1,52,8,2.74,AR,1706492665
461,fort saskatchewan,53.7168,-113.2187,277.7,80,10,3.58,CA,1706492665
462,kashmor,28.4333,69.5833,287.01,30,17,4.15,PK,1706492666
463,prince rupert,54.3161,-130.3201,284.2,87,100,12.86,CA,1706492667
464,sao francisco,-15.9486,-44.8644,294.38,99,76,2.47,BR,1706492668
465,bandarbeyla,9.4942,50.8122,297.85,86,93,2.89,SO,1706492669
466,yima,34.7381,111.8839,275.86,43,0,1.68,CN,1706492670
467,scarborough,54.2797,-0.4044,283.51,88,100,0.45,GB,1706492671
468,egilsstadir,65.2653,-14.3948,271.1,59,0,10.29,IS,1706492672
469,aanekoski,62.6946,25.818,275.75,100,100,6.79,FI,1706492673
470,abra pampa,-22.7205,-65.697,284.64,68,85,5.24,AR,1706492674
471,kalachinsk,55.0529,74.5751,257.46,97,96,3.42,RU,1706492675
472,salem,11.65,78.1667,294.06,87,56,1.55,IN,1706492676
473,madras,13.0878,80.2785,296.14,83,20,0.0,IN,1706492387
474,salida,37.7058,-121.0849,292.07,70,0,0.0,US,1706492677
475,mashhad,36.297,59.6062,277.23,81,75,0.0,IR,1706492679
476,cill airne,52.05,-9.5167,277.69,93,100,1.52,IE,1706492680
477,kelibia,36.8476,11.0939,281.29,100,20,0.51,TN,1706492681
478,motueka,-41.1333,173.0167,298.2,36,1,3.17,NZ,1706492682
479,mhamid,29.82,-5.72,286.2,20,31,2.85,MA,1706492684
480,auki,-8.7676,160.7034,299.44,89,100,6.66,SB,1706492684
481,turbat,26.0023,63.044,292.59,89,100,0.34,PK,1706492686
482,bad munder am deister,52.1955,9.4642,280.83,97,93,3.39,DE,1706492687
483,dzhetygara,52.1908,61.2006,249.55,100,73,1.66,KZ,1706492688
484,bengbu,32.9408,117.3608,279.27,45,100,3.22,CN,1706492689
485,timaru,-44.4,171.25,294.3,64,0,2.68,NZ,1706492690
486,port-vila,-17.7338,168.3219,302.93,66,75,2.57,VU,1706492690
487,nago,26.5881,127.9761,292.62,53,19,4.27,JP,1706492691
488,dabeiba,7.0017,-76.2672,297.96,96,90,1.09,CO,1706492692
489,paracuru,-3.41,-39.0306,302.1,80,91,5.38,BR,1706492693
490,saint-philippe,-21.3585,55.7679,296.92,86,54,2.32,RE,1706492694
491,acapulco de juarez,16.8634,-99.8901,301.05,74,40,3.6,MX,1706492695
492,zhanaozen,43.3,52.8,273.12,98,100,3.52,KZ,1706492696
493,lincoln city,44.9582,-124.0179,289.74,99,100,1.34,US,1706492696
494,petropavlovsk-kamchatsky,53.0452,158.6483,265.48,68,0,4.0,RU,1706492697
495,heyuan,23.7333,114.6833,284.19,85,100,1.13,CN,1706492698
496,retreat,38.8245,-85.8533,278.14,82,100,4.02,US,1706492699
497,neelankarai,12.9455,80.2575,296.18,83,20,0.0,IN,1706492700
498,benidorm,38.5382,-0.131,287.47,72,100,4.76,ES,1706492701
499,zakamensk,50.3741,103.2863,252.88,98,96,0.52,RU,1706492702
500,flying fish cove,-10.4217,105.6791,301.97,78,75,4.12,CX,1706492702
501,acarau,-2.8856,-40.12,300.95,80,93,6.62,BR,1706492703
502,greenland,43.0362,-70.8328,274.88,92,100,2.06,US,1706492704
503,al jahra',29.3375,47.6581,287.94,46,51,2.5,KW,1706492705
504,xiva,41.3783,60.3639,271.14,86,100,5.23,UZ,1706492706
505,pushkinskiye gory,57.0209,28.9103,273.73,93,100,4.07,RU,1706492707
506,suntar,62.1444,117.6319,231.22,100,82,1.15,RU,1706492708
507,ambon,-3.6954,128.1814,306.23,55,40,4.12,ID,1706492709
508,kerema,-7.9631,145.7785,304.0,61,95,2.49,PG,1706492710
509,ar ruways,24.1103,52.7306,292.47,60,22,5.79,AE,1706492711
510,geraldton,-28.7667,114.6,299.38,50,0,2.57,AU,1706492712
511,brisas de zicatela,15.8369,-97.0419,300.44,61,0,2.57,MX,1706492713
512,great falls,47.5002,-111.3008,286.4,56,0,9.26,US,1706492714
513,manali,13.1667,80.2667,296.2,73,78,3.98,IN,1706492715
514,colonel hill,22.7667,-74.2167,298.44,74,0,4.35,BS,1706492716
515,dunedin,-45.8742,170.5036,291.62,64,0,3.6,NZ,1706492717
516,fortuna,40.5982,-124.1573,291.44,85,0,0.0,US,1706492449
517,martapura,-3.4167,114.85,301.2,83,0,1.03,ID,1706492719
518,maryville,35.7565,-83.9705,279.83,84,100,5.14,US,1706492719
519,antalaha,-14.9003,50.2788,296.84,91,63,2.26,MG,1706492720
520,el kala,36.8956,8.4433,284.76,81,13,3.56,DZ,1706492721
521,khorixas,-20.3667,14.9667,296.09,47,100,3.93,NA,1706492722
522,el granada,37.5027,-122.4694,292.47,71,0,2.06,US,1706492723
523,strezhevoy,60.7333,77.5889,258.69,95,100,2.68,RU,1706492725
524,ghat,24.9647,10.1728,284.19,53,0,2.12,LY,1706492726
525,smithers,54.7804,-127.1743,276.33,93,100,2.57,CA,1706492727
526,papao,-17.75,-149.55,304.97,77,73,1.96,PF,1706492728
527,raduzhny,62.0961,77.475,257.65,96,100,2.56,RU,1706492729
528,betio village,1.358,172.9211,304.17,67,82,6.49,KI,1706492729
529,changanacheri,9.4667,76.55,294.8,78,8,1.17,IN,1706492730
530,bridgewater,44.3835,-64.5155,273.97,92,100,2.06,CA,1706492731
531,haifa,32.8156,34.9892,283.82,88,82,2.75,IL,1706492732
532,kailua-kona,19.6406,-155.9956,301.13,77,40,8.75,US,1706492733
533,callao,-12.0667,-77.15,301.88,65,0,4.63,PE,1706492734
534,arkalyk,50.2486,66.9114,254.77,99,86,4.03,KZ,1706492735
535,mutuali,-14.8706,37.0044,292.14,89,0,1.08,MZ,1706492736
536,aykhal,66.0,111.5,248.05,57,96,3.07,RU,1706492736
537,puerto armuelles,8.2833,-82.8667,303.14,67,75,0.45,PA,1706492737
538,miyako,39.6367,141.9525,279.18,50,8,1.32,JP,1706492738
539,lazaro cardenas,17.9583,-102.2,298.48,74,100,2.57,MX,1706492526
540,sal rei,16.1833,-22.9167,295.78,76,5,6.57,CV,1706492741
541,jianshui,23.6363,102.8264,283.86,92,100,1.65,CN,1706492742
542,magistral'nyy,56.1725,107.4458,236.13,100,100,0.34,RU,1706492743
543,neufchatel-en-bray,49.7332,1.4396,279.66,92,100,3.43,FR,1706492743
544,popondetta,-8.7537,148.2534,303.26,67,97,1.91,PG,1706492744
545,gao,16.6362,1.637,290.28,18,0,5.12,ML,1706492745
546,jindrichuv hradec,49.144,15.003,272.45,88,3,0.89,CZ,1706492746
547,villa gesell,-37.2639,-56.973,294.29,82,100,6.14,AR,1706492747
548,midvagur,62.0511,-7.1939,276.61,81,75,12.35,FO,1706492748
549,huntsville,34.7304,-86.5861,280.04,87,100,6.69,US,1706492625
550,north liberty,41.7492,-91.598,273.33,95,100,4.63,US,1706492750
551,vila velha,-20.3297,-40.2925,299.12,95,100,1.54,BR,1706492750
552,las tablas,7.7667,-80.2833,298.25,99,19,8.9,PA,1706492751
553,kromy,52.6876,35.7667,256.29,100,100,0.76,RU,1706492752
554,san antonio de pale,-1.4014,5.6325,300.96,76,79,3.03,GQ,1706492753
555,las palmas,28.4204,-14.0131,288.59,42,0,1.03,ES,1706492754
556,roxas,11.5853,122.7511,298.23,74,100,7.32,PH,1706492755
557,hadibu,12.65,54.0333,297.43,78,91,2.82,YE,1706492756
558,shahr-e babak,30.1165,55.1186,276.54,63,61,2.42,IR,1706492757
559,eaton rapids,42.5092,-84.6558,275.51,85,100,3.09,US,1706492758
560,tena,-0.9833,-77.8167,295.71,96,98,1.33,EC,1706492759
561,dakhla,23.6848,-15.958,292.67,47,0,3.41,EH,1706492760
562,cozumel,20.5083,-86.9458,297.19,84,100,6.69,MX,1706492761
563,tefe,-3.3542,-64.7114,296.3,99,100,1.31,BR,1706492762
564,el bauga,18.262,33.9081,287.88,33,100,5.51,SD,1706492763
565,pisco,-13.7,-76.2167,298.18,78,0,6.69,PE,1706492764
566,varde,55.6211,8.4807,279.11,84,100,6.17,DK,1706492765
567,umluj,25.0213,37.2685,290.95,60,100,4.84,SA,1706492765
